{
  "pins": [
    {
      "id": "3",
      "title": "Доставить посылку",
      "description": "Доставить небольшую посылку до метро Красные ворота",
      "price": 500,
      "contact_info": {
        "phone": "+7 999 333 33 33"
      },
      "location": {
        "lat": 55.7458,
        "lng": 37.6073
      },
      "created_at": "2026-01-11T14:15:00Z",
      "expires_at": "2026-01-11T15:15:00Z",
      "is_active": true,
      "views_count": 2,
      "owner_id": "3",
      "is_own": false
    },
    {
      "id": "a670",
      "title": "Погулять с собакой",
      "description": "Погулять с моей собакой",
      "price": 177,
      "contact_info": {
        "phone": "+7 999 350 15 15"
      },
      "location": {
        "lat": 55.759884353226695,
        "lng": 37.614909713884124
      },
      "created_at": "2026-01-11T13:00:00Z",
      "expires_at": "2026-01-11T14:00:00Z",
      "owner_id": "user-1768141712796",
      "is_own": true,
      "views_count": 0,
      "is_active": true
    },
    {
      "id": "eff0",
      "title": "Сходить в аптеку",
      "description": "Забрать лекарства - небольшой пакет",
      "price": 200,
      "contact_info": {
        "phone": "+7 999 999 99 99"
      },
      "location": {
        "lat": 55.755133901266255,
        "lng": 37.6388168334961
      },
      "created_at": "2026-01-11T12:30:00Z",
      "expires_at": "2026-01-11T13:30:00Z",
      "owner_id": "user-1768143710150",
      "is_own": true,
      "views_count": 0,
      "is_active": true
    },
    {
      "id": "fa89",
      "title": "Сходить за пивом",
      "description": "Купить Дэрыч",
      "price": 100,
      "contact_info": {
        "phone": "+7 999 999 99 99"
      },
      "location": {
        "lat": 55.74025548445182,
        "lng": 37.626309090410366
      },
      "created_at": "2026-01-11T11:00:00Z",
      "expires_at": "2026-01-11T12:00:00Z",
      "owner_id": "user-1768144777236",
      "is_own": true,
      "views_count": 0,
      "is_active": true
    },
    {
      "id": "a67b",
      "title": "Приготовить Ужин",
      "description": "Хочу кушать приготовьте мне ужин",
      "price": 300,
      "contact_info": {
        "phone": "+7 999 999 99 99"
      },
      "location": {
        "lat": 55.73696224555436,
        "lng": 37.62422475076165
      },
      "created_at": "2026-01-11T10:30:00Z",
      "expires_at": "2026-01-11T11:30:00Z",
      "owner_id": "user-1768164379866",
      "is_own": true,
      "views_count": 0,
      "is_active": true
    },
    {
      "id": "308d",
      "title": "ф",
      "description": "ф",
      "price": 100,
      "contact_info": {
        "phone": "+7 999 999 99 99"
      },
      "location": {
        "lat": 55.73551934301118,
        "lng": 37.627744674682624
      },
      "created_at": "2026-01-11T20:48:43.978Z",
      "expires_at": "2026-01-11T21:48:43.978Z",
      "owner_id": "user-1768164523978",
      "is_own": true,
      "views_count": 0,
      "is_active": true
    }
  ]
}