{
  "pins": [
    {
      "id": "a670",
      "title": "Погулять с собакой",
      "description": "Погулять с моей собакой",
      "price": 177,
      "contact_info": {
        "phone": "+7 999 350 15 15"
      },
      "location": {
        "lat": 55.71388532149338,
        "lng": 37.61480668588775
      },
      "created_at": "2026-01-11T13:00:00Z",
      "expires_at": "2026-01-11T14:00:00Z",
      "owner_id": "user-1768141712796",
      "is_own": true,
      "views_count": 0,
      "is_active": true
    },
    {
      "id": "eff0",
      "title": "Сходить в аптеку",
      "description": "Забрать лекарства - небольшой пакет",
      "price": 200,
      "contact_info": {
        "phone": "+7 999 999 99 99"
      },
      "location": {
        "lat": 55.755133901266255,
        "lng": 37.6388168334961
      },
      "created_at": "2026-01-11T12:30:00Z",
      "expires_at": "2026-01-11T13:30:00Z",
      "owner_id": "user-1768143710150",
      "is_own": true,
      "views_count": 0,
      "is_active": true
    },
    {
      "id": "fa89",
      "title": "Сходить за пивом",
      "description": "Купить Дэрыч",
      "price": 100,
      "contact_info": {
        "phone": "+7 999 999 99 99"
      },
      "location": {
        "lat": 55.74025548445182,
        "lng": 37.626309090410366
      },
      "created_at": "2026-01-11T11:00:00Z",
      "expires_at": "2026-01-11T12:00:00Z",
      "owner_id": "user-1768144777236",
      "is_own": true,
      "views_count": 0,
      "is_active": true
    },
    {
      "id": "a67b",
      "title": "Приготовить Ужин",
      "description": "Хочу кушать приготовьте мне ужин",
      "price": 300,
      "contact_info": {
        "phone": "+7 999 999 99 99"
      },
      "location": {
        "lat": 55.73696224555436,
        "lng": 37.62422475076165
      },
      "created_at": "2026-01-11T10:30:00Z",
      "expires_at": "2026-01-11T11:30:00Z",
      "owner_id": "user-1768164379866",
      "is_own": true,
      "views_count": 0,
      "is_active": true
    },
    {
      "id": "308d",
      "title": "ф",
      "description": "ф",
      "price": 100,
      "contact_info": {
        "phone": "+7 999 999 99 99"
      },
      "location": {
        "lat": 55.73551934301118,
        "lng": 37.627744674682624
      },
      "created_at": "2026-01-11T20:48:43.978Z",
      "expires_at": "2026-01-11T21:48:43.978Z",
      "owner_id": "user-1768164523978",
      "is_own": true,
      "views_count": 0,
      "is_active": true
    },
    {
      "id": "b77a",
      "title": "a",
      "description": "a",
      "price": 2,
      "contact_info": {
        "phone": "+7 999 999 99 99"
      },
      "location": {
        "lat": 55.741614369888424,
        "lng": 37.62107857393858
      },
      "created_at": "2026-01-11T21:21:19.269Z",
      "expires_at": "2026-01-11T22:21:19.269Z",
      "owner_id": "user-1768166479269",
      "is_own": true,
      "views_count": 0,
      "is_active": true
    },
    {
      "id": "f06f",
      "title": "Отправить посылку",
      "description": "Нужно отнести посылку на МГИМО",
      "price": 300,
      "contact_info": {
        "phone": "89287654398"
      },
      "location": {
        "lat": 55.73136326949554,
        "lng": 37.62559890747071
      },
      "created_at": "2026-01-11T23:38:04.851Z",
      "expires_at": "2026-01-12T00:38:04.851Z",
      "owner_id": "user-1768174684852",
      "is_own": true,
      "views_count": 0,
      "is_active": true
    }
  ]
}
